{
      "type": "FeatureCollection",
      "features": [
        {
          "id": 608,
          "type": "Feature",
          "geometry": {
            "type": "Point",
            "coordinates": [
              32.6208992004395,
              39.8481597900391
            ]
          },
          "properties": {
            "id": 608,
            "name": "İsmet Hnm Restourante",
            "tips": 0,
            "count": 1,
            "likes": 1,
            "address": "38. Cad",
            "category": "Cambodian Restaurant"
          }
        },
        {
          "id": 609,
          "type": "Feature",
          "geometry": {
            "type": "Point",
            "coordinates": [
              32.622428894043,
              39.847053527832
            ]
          },
          "properties": {
            "id": 609,
            "name": "Sayın Sürücü Kursu Eğitim Pisti",
            "tips": 0,
            "count": 1,
            "likes": 0,
            "address": "Ankara Yolu",
            "category": "Trail"
          }
        },
        {
          "id": 610,
          "type": "Feature",
          "geometry": {
            "type": "Point",
            "coordinates": [
              32.6192036916923,
              39.8524730488566
            ]
          },
          "properties": {
            "id": 610,
            "name": "ocaklı dinlenme tesisleri",
            "tips": 1,
            "count": 1,
            "likes": 1,
            "category": "Rest Area"
          }
        },
        {
          "id": 611,
          "type": "Feature",
          "geometry": {
            "type": "Point",
            "coordinates": [
              32.6220905986015,
              39.8604813241298
            ]
          },
          "properties": {
            "id": 611,
            "name": "TPT ÇEŞMESİ",
            "tips": 0,
            "count": 1,
            "likes": 2,
            "address": "Eskişehir yolu",
            "category": "River"
          }
        },
        {
          "id": 612,
          "type": "Feature",
          "geometry": {
            "type": "Point",
            "coordinates": [
              32.6238679656891,
              39.8599997124388
            ]
          },
          "properties": {
            "id": 612,
            "name": "Çiftlik - Gölbaşı",
            "tips": 0,
            "count": 1,
            "likes": 4,
            "category": "Farm"
          }
        },
        {
          "id": 613,
          "type": "Feature",
          "geometry": {
            "type": "Point",
            "coordinates": [
              32.61602,
              39.85788
            ]
          },
          "properties": {
            "id": 613,
            "name": "Pınar",
            "tips": 0,
            "count": 1,
            "likes": 0,
            "category": "Rental Car Location"
          }
        },
        {
          "id": 614,
          "type": "Feature",
          "geometry": {
            "type": "Point",
            "coordinates": [
              32.6197501678477,
              39.8594304930543
            ]
          },
          "properties": {
            "id": 614,
            "name": "ozan hazır beton hisarlıkaya maden",
            "tips": 0,
            "count": 1,
            "likes": 0,
            "category": "Plaza"
          }
        },
        {
          "id": 615,
          "type": "Feature",
          "geometry": {
            "type": "Point",
            "coordinates": [
              32.6254962719774,
              39.8684357808162
            ]
          },
          "properties": {
            "id": 615,
            "name": "Dayı Kokereç",
            "tips": 0,
            "count": 1,
            "likes": 0,
            "address": "Güvenlik Mah. Güvenlik Cad. No:66/A Çankaya",
            "category": "Turkish Restaurant"
          }
        },
        {
          "id": 616,
          "type": "Feature",
          "geometry": {
            "type": "Point",
            "coordinates": [
              32.6253693202088,
              39.8725344051386
            ]
          },
          "properties": {
            "id": 616,
            "name": "Melih'in Yeri",
            "tips": 0,
            "count": 1,
            "likes": 1,
            "category": "Kebab Restaurant"
          }
        },
        {
          "id": 617,
          "type": "Feature",
          "geometry": {
            "type": "Point",
            "coordinates": [
              32.6153617169405,
              39.8724571539527
            ]
          },
          "properties": {
            "id": 617,
            "name": "Tekses İletişim",
            "tips": 0,
            "count": 1,
            "likes": 0,
            "address": "512 Sk",
            "category": "IT Services"
          }
        },
        {
          "id": 618,
          "type": "Feature",
          "geometry": {
            "type": "Point",
            "coordinates": [
              32.6226205000714,
              39.8808625725035
            ]
          },
          "properties": {
            "id": 618,
            "name": "Serviste",
            "tips": 0,
            "count": 1,
            "likes": 0,
            "category": "Moving Target"
          }
        },
        {
          "id": 619,
          "type": "Feature",
          "geometry": {
            "type": "Point",
            "coordinates": [
              32.61992,
              39.886845
            ]
          },
          "properties": {
            "id": 619,
            "name": "Nefes Eczanesi",
            "tips": 0,
            "count": 1,
            "likes": 2,
            "address": "tek dal caddesi",
            "category": "Pharmacy"
          }
        },
        {
          "id": 620,
          "type": "Feature",
          "geometry": {
            "type": "Point",
            "coordinates": [
              32.618723452679,
              39.8864303600821
            ]
          },
          "properties": {
            "id": 620,
            "name": "Kayra Park Evleri Açık Havuzu",
            "tips": 0,
            "count": 1,
            "likes": 2,
            "category": "Pool"
          }
        },
        {
          "id": 621,
          "type": "Feature",
          "geometry": {
            "type": "Point",
            "coordinates": [
              32.6223224308299,
              39.886229612102
            ]
          },
          "properties": {
            "id": 621,
            "name": "Cafe Locál",
            "tips": 0,
            "count": 1,
            "likes": 0,
            "category": "Café"
          }
        },
        {
          "id": 622,
          "type": "Feature",
          "geometry": {
            "type": "Point",
            "coordinates": [
              32.622255,
              39.885689
            ]
          },
          "properties": {
            "id": 622,
            "name": "Bağlıca Küçük Tepe",
            "tips": 0,
            "count": 1,
            "likes": 0,
            "category": "Scenic Lookout"
          }
        },
        {
          "id": 623,
          "type": "Feature",
          "geometry": {
            "type": "Point",
            "coordinates": [
              32.61422,
              39.889517
            ]
          },
          "properties": {
            "id": 623,
            "name": "Bağlıca Tepe",
            "tips": 0,
            "count": 1,
            "likes": 1,
            "category": "Scenic Lookout"
          }
        },
        {
          "id": 624,
          "type": "Feature",
          "geometry": {
            "type": "Point",
            "coordinates": [
              32.620502,
              39.889385
            ]
          },
          "properties": {
            "id": 624,
            "name": "Bağlıca",
            "tips": 3,
            "count": 1,
            "likes": 7,
            "category": "Bar"
          }
        },
        {
          "id": 625,
          "type": "Feature",
          "geometry": {
            "type": "Point",
            "coordinates": [
              32.610483,
              39.887541
            ]
          },
          "properties": {
            "id": 625,
            "name": "Çevre Yolu Tepe",
            "tips": 0,
            "count": 1,
            "likes": 0,
            "category": "Mountain"
          }
        },
        {
          "id": 626,
          "type": "Feature",
          "geometry": {
            "type": "Point",
            "coordinates": [
              32.619907,
              39.891273
            ]
          },
          "properties": {
            "id": 626,
            "name": "Köroğlu Parkı",
            "tips": 0,
            "count": 1,
            "likes": 1,
            "category": "Park"
          }
        },
        {
          "id": 627,
          "type": "Feature",
          "geometry": {
            "type": "Point",
            "coordinates": [
              32.6111994160699,
              39.8851917395369
            ]
          },
          "properties": {
            "id": 627,
            "name": "YapracıK GöLü",
            "tips": 0,
            "count": 1,
            "likes": 4,
            "category": "Mountain"
          }
        },
        {
          "id": 628,
          "type": "Feature",
          "geometry": {
            "type": "Point",
            "coordinates": [
              32.6143294378283,
              39.8933665799236
            ]
          },
          "properties": {
            "id": 628,
            "name": "BAĞLICA",
            "tips": 1,
            "count": 1,
            "likes": 2,
            "category": "Speakeasy"
          }
        },
        {
          "id": 629,
          "type": "Feature",
          "geometry": {
            "type": "Point",
            "coordinates": [
              32.619101,
              39.891388
            ]
          },
          "properties": {
            "id": 629,
            "name": "ömer halisdemir parkı",
            "tips": 0,
            "count": 1,
            "likes": 2,
            "address": "Bağlıca mahallesi",
            "category": "Park"
          }
        },
        {
          "id": 630,
          "type": "Feature",
          "geometry": {
            "type": "Point",
            "coordinates": [
              32.622543,
              39.89172
            ]
          },
          "properties": {
            "id": 630,
            "name": "Baglıca",
            "tips": 0,
            "count": 1,
            "likes": 2,
            "category": "Bar"
          }
        },
        {
          "id": 631,
          "type": "Feature",
          "geometry": {
            "type": "Point",
            "coordinates": [
              32.6259047244322,
              39.9013943690508
            ]
          },
          "properties": {
            "id": 631,
            "name": "İs Turkuaz Evleri Sit. Basketbol Sahasi",
            "tips": 0,
            "count": 1,
            "likes": 0,
            "category": "Basketball Court"
          }
        },
        {
          "id": 632,
          "type": "Feature",
          "geometry": {
            "type": "Point",
            "coordinates": [
              32.6251882845274,
              39.9009331407104
            ]
          },
          "properties": {
            "id": 632,
            "name": "İş Turkuaz Evleri Havuz",
            "tips": 2,
            "count": 1,
            "likes": 16,
            "address": "İş Turkuaz Evleri Sitesi",
            "category": "Pool"
          }
        },
        {
          "id": 633,
          "type": "Feature",
          "geometry": {
            "type": "Point",
            "coordinates": [
              32.6254214554524,
              39.9015396081013
            ]
          },
          "properties": {
            "id": 633,
            "name": "İş Turkuaz Evleri Sitesi Çocuk Parkı",
            "tips": 0,
            "count": 1,
            "likes": 1,
            "category": "Playground"
          }
        },
        {
          "id": 634,
          "type": "Feature",
          "geometry": {
            "type": "Point",
            "coordinates": [
              32.6233465115396,
              39.8974865822345
            ]
          },
          "properties": {
            "id": 634,
            "name": "Winterfell",
            "tips": 0,
            "count": 1,
            "likes": 2,
            "category": "Hookah Bar"
          }
        },
        {
          "id": 635,
          "type": "Feature",
          "geometry": {
            "type": "Point",
            "coordinates": [
              32.625379,
              39.902137
            ]
          },
          "properties": {
            "id": 635,
            "name": "Korkut Tepe",
            "tips": 0,
            "count": 1,
            "likes": 0,
            "address": "Bağlıca",
            "category": "Mountain"
          }
        },
        {
          "id": 636,
          "type": "Feature",
          "geometry": {
            "type": "Point",
            "coordinates": [
              32.6262469401068,
              39.9010144298592
            ]
          },
          "properties": {
            "id": 636,
            "name": "BİDİK'İN EVİ",
            "tips": 0,
            "count": 1,
            "likes": 1,
            "address": "Baglica",
            "category": "Dog Run"
          }
        },
        {
          "id": 637,
          "type": "Feature",
          "geometry": {
            "type": "Point",
            "coordinates": [
              32.6134627570105,
              39.9001466285729
            ]
          },
          "properties": {
            "id": 637,
            "name": "Köroğlu Çorbacısı",
            "tips": 0,
            "count": 1,
            "likes": 0,
            "address": "Köroğlu Ankara",
            "category": "Soup Place"
          }
        },
        {
          "id": 638,
          "type": "Feature",
          "geometry": {
            "type": "Point",
            "coordinates": [
              32.6200427245986,
              39.9059382539264
            ]
          },
          "properties": {
            "id": 638,
            "name": "kumbaharı",
            "tips": 0,
            "count": 1,
            "likes": 0,
            "category": "Mountain"
          }
        },
        {
          "id": 639,
          "type": "Feature",
          "geometry": {
            "type": "Point",
            "coordinates": [
              32.6178292085542,
              39.9040464019793
            ]
          },
          "properties": {
            "id": 639,
            "name": "Sadık Ustanın Yeri",
            "tips": 0,
            "count": 1,
            "likes": 0,
            "address": "Bağlum",
            "category": "Turkish Restaurant"
          }
        },
        {
          "id": 640,
          "type": "Feature",
          "geometry": {
            "type": "Point",
            "coordinates": [
              32.6175256053898,
              39.9175015017288
            ]
          },
          "properties": {
            "id": 640,
            "name": "Taş Ocağı Tepesi",
            "tips": 0,
            "count": 1,
            "likes": 0,
            "category": "Mountain"
          }
        },
        {
          "id": 641,
          "type": "Feature",
          "geometry": {
            "type": "Point",
            "coordinates": [
              32.620815,
              39.914718
            ]
          },
          "properties": {
            "id": 641,
            "name": "Etimesgut Kurban Satış Pazarı",
            "tips": 0,
            "count": 1,
            "likes": 0,
            "address": "Etimesgut Yapracık",
            "category": "Market"
          }
        },
        {
          "id": 642,
          "type": "Feature",
          "geometry": {
            "type": "Point",
            "coordinates": [
              32.613323,
              39.916897
            ]
          },
          "properties": {
            "id": 642,
            "name": "bahçeee",
            "tips": 0,
            "count": 1,
            "likes": 1,
            "category": "Garden"
          }
        },
        {
          "id": 643,
          "type": "Feature",
          "geometry": {
            "type": "Point",
            "coordinates": [
              32.62281,
              39.91921
            ]
          },
          "properties": {
            "id": 643,
            "name": "Bağlıca Kurban Pazarı",
            "tips": 0,
            "count": 1,
            "likes": 0,
            "address": "Bağlıca",
            "category": "Market"
          }
        },
        {
          "id": 644,
          "type": "Feature",
          "geometry": {
            "type": "Point",
            "coordinates": [
              32.6298346166347,
              39.8563541968093
            ]
          },
          "properties": {
            "id": 644,
            "name": "dua tepe",
            "tips": 0,
            "count": 1,
            "likes": 0,
            "category": "Mountain"
          }
        },
        {
          "id": 645,
          "type": "Feature",
          "geometry": {
            "type": "Point",
            "coordinates": [
              32.6287859241154,
              39.8633193548402
            ]
          },
          "properties": {
            "id": 645,
            "name": "Canlı Müze",
            "tips": 0,
            "count": 1,
            "likes": 2,
            "category": "Historic Site"
          }
        },
        {
          "id": 646,
          "type": "Feature",
          "geometry": {
            "type": "Point",
            "coordinates": [
              32.6297683837389,
              39.8631405154818
            ]
          },
          "properties": {
            "id": 646,
            "name": "Kafeterya",
            "tips": 0,
            "count": 1,
            "likes": 0,
            "category": "Cafeteria"
          }
        },
        {
          "id": 647,
          "type": "Feature",
          "geometry": {
            "type": "Point",
            "coordinates": [
              32.629106052438,
              39.8687038222272
            ]
          },
          "properties": {
            "id": 647,
            "name": "Elmacı Pazarı Güllüoğlu",
            "tips": 0,
            "count": 1,
            "likes": 0,
            "address": "Turan Güneş Bul. No:72/B Çankaya",
            "category": "Dessert Shop"
          }
        },
        {
          "id": 648,
          "type": "Feature",
          "geometry": {
            "type": "Point",
            "coordinates": [
              32.6276359558105,
              39.8888740539551
            ]
          },
          "properties": {
            "id": 648,
            "name": "Bağlıca Beyaz Park Evleri Spor Komleksi",
            "tips": 0,
            "count": 1,
            "likes": 1,
            "category": "Athletics & Sports"
          }
        },
        {
          "id": 649,
          "type": "Feature",
          "geometry": {
            "type": "Point",
            "coordinates": [
              32.6299394852992,
              39.8869870728733
            ]
          },
          "properties": {
            "id": 649,
            "name": "baglica tepe ankara manzara",
            "tips": 0,
            "count": 1,
            "likes": 1,
            "category": "Hot Spring"
          }
        },
        {
          "id": 650,
          "type": "Feature",
          "geometry": {
            "type": "Point",
            "coordinates": [
              32.626682,
              39.893602
            ]
          },
          "properties": {
            "id": 650,
            "name": "Eranova 2 Konutları Parkı",
            "tips": 1,
            "count": 1,
            "likes": 2,
            "category": "Park"
          }
        },
        {
          "id": 651,
          "type": "Feature",
          "geometry": {
            "type": "Point",
            "coordinates": [
              32.631184,
              39.899481
            ]
          },
          "properties": {
            "id": 651,
            "name": "Manzara Parkı",
            "tips": 0,
            "count": 1,
            "likes": 2,
            "address": "Bağlıca",
            "category": "Park"
          }
        },
        {
          "id": 652,
          "type": "Feature",
          "geometry": {
            "type": "Point",
            "coordinates": [
              32.6301589608192,
              39.9021583932279
            ]
          },
          "properties": {
            "id": 652,
            "name": "VİSTA BAĞLICA",
            "tips": 3,
            "count": 1,
            "likes": 2,
            "address": "BAĞLICA MAHALLESİ 1133 SOKAK NO:4",
            "category": "Construction & Landscaping"
          }
        },
        {
          "id": 653,
          "type": "Feature",
          "geometry": {
            "type": "Point",
            "coordinates": [
              32.625182,
              39.901219
            ]
          },
          "properties": {
            "id": 653,
            "name": "Paten Parkı",
            "tips": 0,
            "count": 1,
            "likes": 0,
            "category": "Skate Park"
          }
        },
        {
          "id": 654,
          "type": "Feature",
          "geometry": {
            "type": "Point",
            "coordinates": [
              32.6259268028971,
              39.8995488692588
            ]
          },
          "properties": {
            "id": 654,
            "name": "Bağlıca Off-Road Kulübü",
            "tips": 0,
            "count": 1,
            "likes": 1,
            "category": "Athletics & Sports"
          }
        },
        {
          "id": 655,
          "type": "Feature",
          "geometry": {
            "type": "Point",
            "coordinates": [
              32.631234,
              39.909377
            ]
          },
          "properties": {
            "id": 655,
            "name": "Ariş House",
            "tips": 1,
            "count": 1,
            "likes": 1,
            "category": "BBQ Joint"
          }
        },
        {
          "id": 656,
          "type": "Feature",
          "geometry": {
            "type": "Point",
            "coordinates": [
              32.6283333272027,
              39.9090162398025
            ]
          },
          "properties": {
            "id": 656,
            "name": "hadi gelinn",
            "tips": 0,
            "count": 1,
            "likes": 0,
            "category": "Forest"
          }
        },
        {
          "id": 657,
          "type": "Feature",
          "geometry": {
            "type": "Point",
            "coordinates": [
              32.6301547416971,
              39.9147930825879
            ]
          },
          "properties": {
            "id": 657,
            "name": "552 Elvankent-Batikent",
            "tips": 0,
            "count": 1,
            "likes": 0,
            "category": "Moving Target"
          }
        },
        {
          "id": 658,
          "type": "Feature",
          "geometry": {
            "type": "Point",
            "coordinates": [
              32.6332179570488,
              39.8461380455131
            ]
          },
          "properties": {
            "id": 658,
            "name": "In the garden",
            "tips": 0,
            "count": 1,
            "likes": 0,
            "category": "Garden"
          }
        },
        {
          "id": 659,
          "type": "Feature",
          "geometry": {
            "type": "Point",
            "coordinates": [
              32.6340292799009,
              39.8457337909984
            ]
          },
          "properties": {
            "id": 659,
            "name": "Manhattan Tepesi Çankaya",
            "tips": 0,
            "count": 1,
            "likes": 1,
            "category": "Bar"
          }
        },
        {
          "id": 660,
          "type": "Feature",
          "geometry": {
            "type": "Point",
            "coordinates": [
              32.633546,
              39.847012
            ]
          },
          "properties": {
            "id": 660,
            "name": "Relax Plus+ Sports Club",
            "tips": 0,
            "count": 1,
            "likes": 5,
            "category": "Gym / Fitness Center"
          }
        },
        {
          "id": 661,
          "type": "Feature",
          "geometry": {
            "type": "Point",
            "coordinates": [
              32.6334111297365,
              39.8531048528351
            ]
          },
          "properties": {
            "id": 661,
            "name": "Orman",
            "tips": 0,
            "count": 1,
            "likes": 1,
            "category": "Scenic Lookout"
          }
        },
        {
          "id": 662,
          "type": "Feature",
          "geometry": {
            "type": "Point",
            "coordinates": [
              32.6333669760113,
              39.8554752851623
            ]
          },
          "properties": {
            "id": 662,
            "name": "Doğanay konutları",
            "tips": 0,
            "count": 1,
            "likes": 2,
            "address": "3415. cadde no: 3",
            "category": "Residential Building (Apartment / Condo)"
          }
        },
        {
          "id": 663,
          "type": "Feature",
          "geometry": {
            "type": "Point",
            "coordinates": [
              32.6344704571419,
              39.8522970288565
            ]
          },
          "properties": {
            "id": 663,
            "name": "Vista Plus Şantiyesi",
            "tips": 0,
            "count": 1,
            "likes": 3,
            "category": "Construction & Landscaping"
          }
        },
        {
          "id": 664,
          "type": "Feature",
          "geometry": {
            "type": "Point",
            "coordinates": [
              32.6328260913402,
              39.8571760379007
            ]
          },
          "properties": {
            "id": 664,
            "name": "Ankara ARENA",
            "tips": 0,
            "count": 1,
            "likes": 20,
            "address": "Eski Roma İmparatorluğu",
            "category": "Castle"
          }
        },
        {
          "id": 665,
          "type": "Feature",
          "geometry": {
            "type": "Point",
            "coordinates": [
              32.63611,
              39.857582
            ]
          },
          "properties": {
            "id": 665,
            "name": "Arabica",
            "tips": 1,
            "count": 1,
            "likes": 0,
            "category": "Coffee Shop"
          }
        },
        {
          "id": 669,
          "type": "Feature",
          "geometry": {
            "type": "Point",
            "coordinates": [
              32.634338353591,
              39.8640971206455
            ]
          },
          "properties": {
            "id": 669,
            "name": "Sherlock Holmes",
            "tips": 0,
            "count": 1,
            "likes": 0,
            "category": "Multiplex"
          }
        },
        {
          "id": 671,
          "type": "Feature",
          "geometry": {
            "type": "Point",
            "coordinates": [
              32.6323072809242,
              39.8627969515784
            ]
          },
          "properties": {
            "id": 671,
            "name": "Park Flora Oyun Parki",
            "tips": 0,
            "count": 1,
            "likes": 0,
            "category": "Park"
          }
        },
        {
          "id": 675,
          "type": "Feature",
          "geometry": {
            "type": "Point",
            "coordinates": [
              32.63368709009,
              39.8714665208342
            ]
          },
          "properties": {
            "id": 675,
            "name": "Sandıklı",
            "tips": 0,
            "count": 1,
            "likes": 1,
            "category": "Afghan Restaurant"
          }
        },
        {
          "id": 676,
          "type": "Feature",
          "geometry": {
            "type": "Point",
            "coordinates": [
              32.6326549945771,
              39.8860816115302
            ]
          },
          "properties": {
            "id": 676,
            "name": "Bağlıca Yürüyüş Parkuru",
            "tips": 3,
            "count": 1,
            "likes": 17,
            "address": "Bağlıca",
            "category": "Athletics & Sports"
          }
        },
        {
          "id": 677,
          "type": "Feature",
          "geometry": {
            "type": "Point",
            "coordinates": [
              32.6323837529562,
              39.8951277126474
            ]
          },
          "properties": {
            "id": 677,
            "name": "Nur Büfe",
            "tips": 0,
            "count": 1,
            "likes": 5,
            "address": "İşTurkuaz Caddesi",
            "category": "Grocery Store"
          }
        },
        {
          "id": 678,
          "type": "Feature",
          "geometry": {
            "type": "Point",
            "coordinates": [
              32.636048,
              39.89695
            ]
          },
          "properties": {
            "id": 678,
            "name": "Şok Market",
            "tips": 0,
            "count": 1,
            "likes": 2,
            "category": "Grocery Store"
          }
        },
        {
          "id": 679,
          "type": "Feature",
          "geometry": {
            "type": "Point",
            "coordinates": [
              32.6349399407908,
              39.8991516240563
            ]
          },
          "properties": {
            "id": 679,
            "name": "yuruyuste",
            "tips": 0,
            "count": 1,
            "likes": 2,
            "category": "Track"
          }
        },
        {
          "id": 680,
          "type": "Feature",
          "geometry": {
            "type": "Point",
            "coordinates": [
              32.634443,
              39.897804
            ]
          },
          "properties": {
            "id": 680,
            "name": "Güven Market",
            "tips": 3,
            "count": 1,
            "likes": 3,
            "address": "Bağlıca Mah 1178 Sokak",
            "category": "Big Box Store"
          }
        },
        {
          "id": 681,
          "type": "Feature",
          "geometry": {
            "type": "Point",
            "coordinates": [
              32.636617743392,
              39.9012804124429
            ]
          },
          "properties": {
            "id": 681,
            "name": "Arasta AVM ~ s",
            "tips": 0,
            "count": 1,
            "likes": 2,
            "category": "Tailor Shop"
          }
        },
        {
          "id": 682,
          "type": "Feature",
          "geometry": {
            "type": "Point",
            "coordinates": [
              32.6321141061651,
              39.9158620030811
            ]
          },
          "properties": {
            "id": 682,
            "name": "Şehzade Cafe",
            "tips": 0,
            "count": 1,
            "likes": 0,
            "category": "Café"
          }
        },
        {
          "id": 683,
          "type": "Feature",
          "geometry": {
            "type": "Point",
            "coordinates": [
              32.6340844716994,
              39.8989170205462
            ]
          },
          "properties": {
            "id": 683,
            "name": "gold yaşam koşu yolu",
            "tips": 1,
            "count": 1,
            "likes": 1,
            "category": "Nature Preserve"
          }
        },
        {
          "id": 684,
          "type": "Feature",
          "geometry": {
            "type": "Point",
            "coordinates": [
              32.6280573524992,
              39.9201913819573
            ]
          },
          "properties": {
            "id": 684,
            "name": "Kilise Mevkii",
            "tips": 0,
            "count": 1,
            "likes": 1,
            "category": "Farm"
          }
        },
        {
          "id": 685,
          "type": "Feature",
          "geometry": {
            "type": "Point",
            "coordinates": [
              32.636489,
              39.913723
            ]
          },
          "properties": {
            "id": 685,
            "name": "Bağlıca Manzara",
            "tips": 0,
            "count": 1,
            "likes": 2,
            "address": "999 Sokak",
            "category": "Mountain"
          }
        },
        {
          "id": 686,
          "type": "Feature",
          "geometry": {
            "type": "Point",
            "coordinates": [
              32.6385052386203,
              39.8507647789294
            ]
          },
          "properties": {
            "id": 686,
            "name": "Yaşamkent Fitness Park",
            "tips": 1,
            "count": 1,
            "likes": 2,
            "address": "Yaşamkent Mah. 3390 Sok. Yeni Atabilge Sit. No:2 Çayyyolu Yenimahalle",
            "category": "Gym"
          }
        },
        {
          "id": 687,
          "type": "Feature",
          "geometry": {
            "type": "Point",
            "coordinates": [
              32.63858,
              39.84728
            ]
          },
          "properties": {
            "id": 687,
            "name": "Tako Irish Pub",
            "tips": 1,
            "count": 1,
            "likes": 1,
            "address": "Yasamkent",
            "category": "Irish Pub"
          }
        },
        {
          "id": 688,
          "type": "Feature",
          "geometry": {
            "type": "Point",
            "coordinates": [
              32.638177,
              39.847014
            ]
          },
          "properties": {
            "id": 688,
            "name": "Alfonso Enjoy",
            "tips": 7,
            "count": 1,
            "likes": 16,
            "address": "Relax Plus Sitesi / Yaşamkent",
            "category": "Café"
          }
        },
        {
          "id": 689,
          "type": "Feature",
          "geometry": {
            "type": "Point",
            "coordinates": [
              32.638535,
              39.847397
            ]
          },
          "properties": {
            "id": 689,
            "name": "Asia Cafe Bistro",
            "tips": 4,
            "count": 1,
            "likes": 3,
            "address": "Alacaatlı Mahallesi",
            "category": "Restaurant"
          }
        },
        {
          "id": 690,
          "type": "Feature",
          "geometry": {
            "type": "Point",
            "coordinates": [
              32.6384681301128,
              39.8474566158663
            ]
          },
          "properties": {
            "id": 690,
            "name": "Road To Coffee",
            "tips": 1,
            "count": 1,
            "likes": 8,
            "address": "Relax Plus",
            "category": "Café"
          }
        },
        {
          "id": 691,
          "type": "Feature",
          "geometry": {
            "type": "Point",
            "coordinates": [
              32.640444,
              39.85008
            ]
          },
          "properties": {
            "id": 691,
            "name": "Relax Plus+ Swimming Pool",
            "tips": 0,
            "count": 1,
            "likes": 1,
            "address": "Relax Plus+ Spor Merkezi",
            "category": "Sports Club"
          }
        },
        {
          "id": 692,
          "type": "Feature",
          "geometry": {
            "type": "Point",
            "coordinates": [
              32.6406828402414,
              39.8505192187211
            ]
          },
          "properties": {
            "id": 692,
            "name": "Yeni Atabilge Havuzu",
            "tips": 1,
            "count": 1,
            "likes": 10,
            "category": "Pool"
          }
        },
        {
          "id": 693,
          "type": "Feature",
          "geometry": {
            "type": "Point",
            "coordinates": [
              32.6405803396123,
              39.8505150723536
            ]
          },
          "properties": {
            "id": 693,
            "name": "Fitness Park",
            "tips": 19,
            "count": 1,
            "likes": 40,
            "address": "Yaşamkent Yeni Atabilge Sitesi",
            "category": "Gym"
          }
        },
        {
          "id": 706,
          "type": "Feature",
          "geometry": {
            "type": "Point",
            "coordinates": [
              32.6379312671268,
              39.8585508987246
            ]
          },
          "properties": {
            "id": 706,
            "name": "Hayvan Sever",
            "tips": 0,
            "count": 1,
            "likes": 0,
            "address": "Huhiho",
            "category": "Flower Shop"
          }
        },
        {
          "id": 707,
          "type": "Feature",
          "geometry": {
            "type": "Point",
            "coordinates": [
              32.6377436219055,
              39.8646788142791
            ]
          },
          "properties": {
            "id": 707,
            "name": "Ankamodern Çağdaş",
            "tips": 1,
            "count": 1,
            "likes": 1,
            "category": "Convenience Store"
          }
        },
        {
          "id": 715,
          "type": "Feature",
          "geometry": {
            "type": "Point",
            "coordinates": [
              32.6374522751389,
              39.8641379996499
            ]
          },
          "properties": {
            "id": 715,
            "name": "PROLASS LASSA & BRIDGESTONE YAŞAMKENT MAĞAZASI OTO KUAFÖR OTO BAKIM YIKAMA",
            "tips": 2,
            "count": 1,
            "likes": 3,
            "address": "Yapracık mah 3250 cd. No: 20C/3",
            "category": "Auto Workshop"
          }
        },
        {
          "id": 716,
          "type": "Feature",
          "geometry": {
            "type": "Point",
            "coordinates": [
              32.6410826882884,
              39.8658878099082
            ]
          },
          "properties": {
            "id": 716,
            "name": "Yasamkent Cafe",
            "tips": 6,
            "count": 1,
            "likes": 12,
            "address": "Yasamkent",
            "category": "Park"
          }
        },
        {
          "id": 719,
          "type": "Feature",
          "geometry": {
            "type": "Point",
            "coordinates": [
              32.6335987828574,
              39.9153033440669
            ]
          },
          "properties": {
            "id": 719,
            "name": "Keçi Bar",
            "tips": 0,
            "count": 1,
            "likes": 0,
            "category": "Bar"
          }
        },
        {
          "id": 720,
          "type": "Feature",
          "geometry": {
            "type": "Point",
            "coordinates": [
              32.6382347471381,
              39.8899066088644
            ]
          },
          "properties": {
            "id": 720,
            "name": "Görkem Güneş Eczane",
            "tips": 1,
            "count": 1,
            "likes": 8,
            "address": "Bağlıca Mh. Mermeroğlu Cd. No:60:F Etimesgut/ANKARA",
            "category": "Pharmacy"
          }
        },
        {
          "id": 721,
          "type": "Feature",
          "geometry": {
            "type": "Point",
            "coordinates": [
              32.63748,
              39.889465
            ]
          },
          "properties": {
            "id": 721,
            "name": "Etburger",
            "tips": 4,
            "count": 1,
            "likes": 3,
            "address": "Bağlıca Mah. Mermeroğlu Cad. No:35/e",
            "category": "Burger Joint"
          }
        },
        {
          "id": 722,
          "type": "Feature",
          "geometry": {
            "type": "Point",
            "coordinates": [
              32.6379111980734,
              39.8905285046661
            ]
          },
          "properties": {
            "id": 722,
            "name": "Multiflat Residence",
            "tips": 2,
            "count": 1,
            "likes": 7,
            "category": "Construction & Landscaping"
          }
        },
        {
          "id": 725,
          "type": "Feature",
          "geometry": {
            "type": "Point",
            "coordinates": [
              32.6395149916316,
              39.897081068343
            ]
          },
          "properties": {
            "id": 725,
            "name": "Şehit Astsubay Seçkin Çil Parkı",
            "tips": 0,
            "count": 1,
            "likes": 0,
            "category": "Park"
          }
        },
        {
          "id": 726,
          "type": "Feature",
          "geometry": {
            "type": "Point",
            "coordinates": [
              32.639138750683,
              39.8977501049073
            ]
          },
          "properties": {
            "id": 726,
            "name": "Balık Sarayı",
            "tips": 37,
            "count": 1,
            "likes": 40,
            "address": "Bağlıca",
            "category": "Seafood Restaurant"
          }
        },
        {
          "id": 727,
          "type": "Feature",
          "geometry": {
            "type": "Point",
            "coordinates": [
              32.6382348101425,
              39.8963350935033
            ]
          },
          "properties": {
            "id": 727,
            "name": "BSM oto lastik",
            "tips": 2,
            "count": 1,
            "likes": 2,
            "address": "Bağlıca",
            "category": "Auto Workshop"
          }
        },
        {
          "id": 733,
          "type": "Feature",
          "geometry": {
            "type": "Point",
            "coordinates": [
              32.639288,
              39.897271
            ]
          },
          "properties": {
            "id": 733,
            "name": "Möhqem",
            "tips": 7,
            "count": 1,
            "likes": 6,
            "address": "Bağlıca Bulvarı",
            "category": "Hookah Bar"
          }
        },
        {
          "id": 734,
          "type": "Feature",
          "geometry": {
            "type": "Point",
            "coordinates": [
              32.6390847258223,
              39.898722766357
            ]
          },
          "properties": {
            "id": 734,
            "name": "Yargı Parkı",
            "tips": 1,
            "count": 1,
            "likes": 27,
            "address": "Bağlıca Mahallesi",
            "category": "Park"
          }
        },
        {
          "id": 735,
          "type": "Feature",
          "geometry": {
            "type": "Point",
            "coordinates": [
              32.63843,
              39.89603
            ]
          },
          "properties": {
            "id": 735,
            "name": "Drywell Kuru Temizleme & Terzi",
            "tips": 0,
            "count": 1,
            "likes": 4,
            "address": "Bağlıca Mahallesi",
            "category": "Dry Cleaner"
          }
        },
        {
          "id": 738,
          "type": "Feature",
          "geometry": {
            "type": "Point",
            "coordinates": [
              32.640644,
              39.908813
            ]
          },
          "properties": {
            "id": 738,
            "name": "Bahçeli Konak Bağlıca",
            "tips": 1,
            "count": 1,
            "likes": 5,
            "address": "Bağlıca Mahallesi 1034 sokak no, :30",
            "category": "Restaurant"
          }
        },
        {
          "id": 739,
          "type": "Feature",
          "geometry": {
            "type": "Point",
            "coordinates": [
              32.6409151298677,
              39.865897090297
            ]
          },
          "properties": {
            "id": 739,
            "name": "Yaşamkent Halı Saha",
            "tips": 3,
            "count": 1,
            "likes": 4,
            "category": "Soccer Field"
          }
        },
        {
          "id": 760,
          "type": "Feature",
          "geometry": {
            "type": "Point",
            "coordinates": [
              32.6422404296972,
              39.8615984481677
            ]
          },
          "properties": {
            "id": 760,
            "name": "BESA Nova Evleri Spor Merkezi",
            "tips": 4,
            "count": 1,
            "likes": 6,
            "category": "Gym"
          }
        },
        {
          "id": 761,
          "type": "Feature",
          "geometry": {
            "type": "Point",
            "coordinates": [
              32.645294,
              39.858154
            ]
          },
          "properties": {
            "id": 761,
            "name": "210 Derece Grill&Pub",
            "tips": 2,
            "count": 1,
            "likes": 6,
            "address": "Yaşamkent Mahallesi 3296. Cadde Gözüm Park Plaza",
            "category": "Gastropub"
          }
        },
        {
          "id": 762,
          "type": "Feature",
          "geometry": {
            "type": "Point",
            "coordinates": [
              32.6427436982051,
              39.8500026953514
            ]
          },
          "properties": {
            "id": 762,
            "name": "Yeni Atabilge Çardaklar",
            "tips": 0,
            "count": 1,
            "likes": 0,
            "category": "Park"
          }
        },
        {
          "id": 763,
          "type": "Feature",
          "geometry": {
            "type": "Point",
            "coordinates": [
              32.646239,
              39.854649
            ]
          },
          "properties": {
            "id": 763,
            "name": "Sia Mücevherat",
            "tips": 1,
            "count": 1,
            "likes": 2,
            "address": "Alacaatlı Mahallesi 3222. CADDE No: 35 Yaşamkent",
            "category": "Jewelry Store"
          }
        },
        {
          "id": 764,
          "type": "Feature",
          "geometry": {
            "type": "Point",
            "coordinates": [
              32.6453913451507,
              39.8563226466548
            ]
          },
          "properties": {
            "id": 764,
            "name": "Karina Plaza",
            "tips": 9,
            "count": 1,
            "likes": 123,
            "address": "Yaşamkent Mah 3222 Çayyolu Ankara",
            "category": "Shopping Mall"
          }
        },
        {
          "id": 765,
          "type": "Feature",
          "geometry": {
            "type": "Point",
            "coordinates": [
              32.642925815602,
              39.8501619148271
            ]
          },
          "properties": {
            "id": 765,
            "name": "Guitar Hero Rock'N Ball",
            "tips": 0,
            "count": 1,
            "likes": 2,
            "category": "Arcade"
          }
        },
        {
          "id": 766,
          "type": "Feature",
          "geometry": {
            "type": "Point",
            "coordinates": [
              32.6444103362927,
              39.8580291072586
            ]
          },
          "properties": {
            "id": 766,
            "name": "Cantel İletişim",
            "tips": 0,
            "count": 1,
            "likes": 0,
            "address": "Yasamkent Mah 3222 Cad",
            "category": "Mobile Phone Shop"
          }
        },
        {
          "id": 767,
          "type": "Feature",
          "geometry": {
            "type": "Point",
            "coordinates": [
              32.6445930315998,
              39.8582818999255
            ]
          },
          "properties": {
            "id": 767,
            "name": "CarrefourSA Süper",
            "tips": 0,
            "count": 1,
            "likes": 24,
            "address": "Yaşamkent Mah. 3297. Cad. No: 1/A",
            "category": "Supermarket"
          }
        },
        {
          "id": 768,
          "type": "Feature",
          "geometry": {
            "type": "Point",
            "coordinates": [
              32.6430826352479,
              39.8616106884812
            ]
          },
          "properties": {
            "id": 768,
            "name": "Erciyes Baklava & Börek",
            "tips": 9,
            "count": 1,
            "likes": 21,
            "address": "Yaşamkent/Çayyolu",
            "category": "Cupcake Shop"
          }
        },
        {
          "id": 769,
          "type": "Feature",
          "geometry": {
            "type": "Point",
            "coordinates": [
              32.6434980345957,
              39.8615233127341
            ]
          },
          "properties": {
            "id": 769,
            "name": "Besa Nova Avm",
            "tips": 2,
            "count": 1,
            "likes": 7,
            "category": "Shopping Mall"
          }
        },
        {
          "id": 772,
          "type": "Feature",
          "geometry": {
            "type": "Point",
            "coordinates": [
              32.6442975210238,
              39.8636090255735
            ]
          },
          "properties": {
            "id": 772,
            "name": "Çağdaş Süpermarket",
            "tips": 16,
            "count": 1,
            "likes": 169,
            "category": "Supermarket"
          }
        },
        {
          "id": 779,
          "type": "Feature",
          "geometry": {
            "type": "Point",
            "coordinates": [
              32.6436143355249,
              39.8591634944312
            ]
          },
          "properties": {
            "id": 779,
            "name": "Yaşamkent Büfe",
            "tips": 2,
            "count": 1,
            "likes": 3,
            "address": "Yaşamkent",
            "category": "Ice Cream Shop"
          }
        },
        {
          "id": 848,
          "type": "Feature",
          "geometry": {
            "type": "Point",
            "coordinates": [
              32.6434224977724,
              39.8618183463251
            ]
          },
          "properties": {
            "id": 848,
            "name": "Bim",
            "tips": 3,
            "count": 1,
            "likes": 1,
            "category": "Grocery Store"
          }
        },
        {
          "id": 666,
          "type": "Feature",
          "geometry": {
            "type": "Point",
            "coordinates": [
              32.6343019722599,
              39.8567068810322
            ]
          },
          "properties": {
            "id": 666,
            "name": "Yaşam Tepe",
            "tips": 2,
            "count": 1,
            "likes": 30,
            "category": "Beer Garden"
          }
        },
        {
          "id": 667,
          "type": "Feature",
          "geometry": {
            "type": "Point",
            "coordinates": [
              32.6333804778384,
              39.8630604179561
            ]
          },
          "properties": {
            "id": 667,
            "name": "Crystal Tower Yürüyüş Parkı",
            "tips": 0,
            "count": 1,
            "likes": 0,
            "category": "Park"
          }
        },
        {
          "id": 668,
          "type": "Feature",
          "geometry": {
            "type": "Point",
            "coordinates": [
              32.6338048329131,
              39.8635743163606
            ]
          },
          "properties": {
            "id": 668,
            "name": "GYM COMPLEX",
            "tips": 0,
            "count": 1,
            "likes": 3,
            "category": "Gym Pool"
          }
        },
        {
          "id": 695,
          "type": "Feature",
          "geometry": {
            "type": "Point",
            "coordinates": [
              32.6405913772716,
              39.8505864008905
            ]
          },
          "properties": {
            "id": 695,
            "name": "Fitness Park Aquapark",
            "tips": 10,
            "count": 1,
            "likes": 28,
            "address": "Yeni Atabilge Sitesi",
            "category": "Water Park"
          }
        },
        {
          "id": 697,
          "type": "Feature",
          "geometry": {
            "type": "Point",
            "coordinates": [
              32.6377049890234,
              39.8509551877229
            ]
          },
          "properties": {
            "id": 697,
            "name": "Birtam A.ş Şantiye",
            "tips": 0,
            "count": 1,
            "likes": 0,
            "category": "Department Store"
          }
        },
        {
          "id": 698,
          "type": "Feature",
          "geometry": {
            "type": "Point",
            "coordinates": [
              32.6287417684066,
              39.9188278620639
            ]
          },
          "properties": {
            "id": 698,
            "name": "Bombos arazi",
            "tips": 0,
            "count": 1,
            "likes": 0,
            "category": "Mountain"
          }
        },
        {
          "id": 699,
          "type": "Feature",
          "geometry": {
            "type": "Point",
            "coordinates": [
              32.63543,
              39.916115
            ]
          },
          "properties": {
            "id": 699,
            "name": "ALYA iş merkezi",
            "tips": 0,
            "count": 1,
            "likes": 0,
            "address": "bağlıca",
            "category": "Arcade"
          }
        },
        {
          "id": 700,
          "type": "Feature",
          "geometry": {
            "type": "Point",
            "coordinates": [
              32.6366618957226,
              39.8619168446219
            ]
          },
          "properties": {
            "id": 700,
            "name": "Park Flora Sabah Yürüyüşü",
            "tips": 0,
            "count": 1,
            "likes": 2,
            "address": "Yaşamkent",
            "category": "Basketball Court"
          }
        },
        {
          "id": 701,
          "type": "Feature",
          "geometry": {
            "type": "Point",
            "coordinates": [
              32.6382177368354,
              39.8646210198
            ]
          },
          "properties": {
            "id": 701,
            "name": "Çağdaş Market",
            "tips": 7,
            "count": 1,
            "likes": 69,
            "address": "Yaşamkent Mahallesi ANKA Modern",
            "category": "Supermarket"
          }
        },
        {
          "id": 702,
          "type": "Feature",
          "geometry": {
            "type": "Point",
            "coordinates": [
              32.6369208896028,
              39.8638811582776
            ]
          },
          "properties": {
            "id": 702,
            "name": "Anka modern yuruyus yolu",
            "tips": 0,
            "count": 1,
            "likes": 16,
            "address": "3251",
            "category": "Park"
          }
        },
        {
          "id": 703,
          "type": "Feature",
          "geometry": {
            "type": "Point",
            "coordinates": [
              32.637988,
              39.863724
            ]
          },
          "properties": {
            "id": 703,
            "name": "Anka Simitçi",
            "tips": 0,
            "count": 1,
            "likes": 1,
            "address": "Yaşamkent",
            "category": "Breakfast Spot"
          }
        },
        {
          "id": 704,
          "type": "Feature",
          "geometry": {
            "type": "Point",
            "coordinates": [
              32.6372352694367,
              39.8628993657645
            ]
          },
          "properties": {
            "id": 704,
            "name": "Caner Büfe",
            "tips": 24,
            "count": 1,
            "likes": 29,
            "address": "Yaşamkent Mahallesi 3258. Sokak",
            "category": "Liquor Store"
          }
        },
        {
          "id": 729,
          "type": "Feature",
          "geometry": {
            "type": "Point",
            "coordinates": [
              32.6382693530234,
              39.8971913638699
            ]
          },
          "properties": {
            "id": 729,
            "name": "kalenderoğlu kebapcısı",
            "tips": 49,
            "count": 1,
            "likes": 102,
            "address": "Bağlıca mah.bağlıca caddesi",
            "category": "Steakhouse"
          }
        },
        {
          "id": 730,
          "type": "Feature",
          "geometry": {
            "type": "Point",
            "coordinates": [
              32.63911,
              39.898025
            ]
          },
          "properties": {
            "id": 730,
            "name": "Keçi Dede Mandıra",
            "tips": 2,
            "count": 1,
            "likes": 3,
            "address": "Bağlıca mah. 1180 sok. 1/C Etimesgut, Ankara",
            "category": "Organic Grocery"
          }
        },
        {
          "id": 731,
          "type": "Feature",
          "geometry": {
            "type": "Point",
            "coordinates": [
              32.633681,
              39.887267
            ]
          },
          "properties": {
            "id": 731,
            "name": "Seğmen Bağlıca Konutları Yüzme Havuzu",
            "tips": 0,
            "count": 1,
            "likes": 2,
            "category": "Pool"
          }
        },
        {
          "id": 732,
          "type": "Feature",
          "geometry": {
            "type": "Point",
            "coordinates": [
              32.638594,
              39.896493
            ]
          },
          "properties": {
            "id": 732,
            "name": "İlknurun Eczanesi",
            "tips": 0,
            "count": 1,
            "likes": 1,
            "category": "Pharmacy"
          }
        },
        {
          "id": 736,
          "type": "Feature",
          "geometry": {
            "type": "Point",
            "coordinates": [
              32.6388744032538,
              39.8973707389528
            ]
          },
          "properties": {
            "id": 736,
            "name": "BS Bulvar Kebap",
            "tips": 3,
            "count": 1,
            "likes": 7,
            "address": "Bağlıca Mahallesi Bağlıca Bulvarı No:2C/2 Etimesgut-Ankara",
            "category": "Kebab Restaurant"
          }
        },
        {
          "id": 737,
          "type": "Feature",
          "geometry": {
            "type": "Point",
            "coordinates": [
              32.626632,
              39.90154
            ]
          },
          "properties": {
            "id": 737,
            "name": "Gorkem's steakhouse/barbecue & gym-garden",
            "tips": 0,
            "count": 1,
            "likes": 3,
            "category": "Lounge"
          }
        },
        {
          "id": 740,
          "type": "Feature",
          "geometry": {
            "type": "Point",
            "coordinates": [
              32.6407293478761,
              39.9129540561418
            ]
          },
          "properties": {
            "id": 740,
            "name": "Emlak Park Plus GYO",
            "tips": 0,
            "count": 1,
            "likes": 1,
            "address": "Bağlıca Mahallesi 1017.Sokak Kayra Kule No:76",
            "category": "IT Services"
          }
        },
        {
          "id": 741,
          "type": "Feature",
          "geometry": {
            "type": "Point",
            "coordinates": [
              32.6363,
              39.886717
            ]
          },
          "properties": {
            "id": 741,
            "name": "seğmen bağlıca konutları çocuk parkı",
            "tips": 0,
            "count": 1,
            "likes": 1,
            "category": "Playground"
          }
        },
        {
          "id": 742,
          "type": "Feature",
          "geometry": {
            "type": "Point",
            "coordinates": [
              32.6426657738742,
              39.8501600552733
            ]
          },
          "properties": {
            "id": 742,
            "name": "Ay Yildiz Market Ata Bilge",
            "tips": 0,
            "count": 1,
            "likes": 2,
            "category": "Convenience Store"
          }
        },
        {
          "id": 743,
          "type": "Feature",
          "geometry": {
            "type": "Point",
            "coordinates": [
              32.6420593754071,
              39.8500389545254
            ]
          },
          "properties": {
            "id": 743,
            "name": "Yeni Atabilge Koşu Parkuru",
            "tips": 1,
            "count": 1,
            "likes": 3,
            "category": "Trail"
          }
        },
        {
          "id": 744,
          "type": "Feature",
          "geometry": {
            "type": "Point",
            "coordinates": [
              32.6387867042404,
              39.8561056847881
            ]
          },
          "properties": {
            "id": 744,
            "name": "Kofteci Minibusu",
            "tips": 0,
            "count": 1,
            "likes": 0,
            "address": "Cayyolu",
            "category": "Food Truck"
          }
        },
        {
          "id": 747,
          "type": "Feature",
          "geometry": {
            "type": "Point",
            "coordinates": [
              32.6453120360982,
              39.8565189140731
            ]
          },
          "properties": {
            "id": 747,
            "name": "Anitta Eczanesi",
            "tips": 3,
            "count": 1,
            "likes": 18,
            "address": "Yaşamkent Mah. 3222 Cd Besa Karina Plaza No:29/9 Migros Yanı  Çayyolu Yenimahalle",
            "category": "Pharmacy"
          }
        },
        {
          "id": 752,
          "type": "Feature",
          "geometry": {
            "type": "Point",
            "coordinates": [
              32.6453847257863,
              39.8581436211705
            ]
          },
          "properties": {
            "id": 752,
            "name": "Pizza Hut",
            "tips": 9,
            "count": 1,
            "likes": 18,
            "address": "Yaşamkent Mah. 3296. Cad. No:2/N",
            "category": "Pizza Place"
          }
        },
        {
          "id": 754,
          "type": "Feature",
          "geometry": {
            "type": "Point",
            "coordinates": [
              32.6448403693291,
              39.857246529955
            ]
          },
          "properties": {
            "id": 754,
            "name": "Komagene Yasamkent",
            "tips": 2,
            "count": 1,
            "likes": 6,
            "address": "Yasamkent Besa Karina Plaza",
            "category": "Fast Food Restaurant"
          }
        },
        {
          "id": 755,
          "type": "Feature",
          "geometry": {
            "type": "Point",
            "coordinates": [
              32.6457411356473,
              39.8559223542235
            ]
          },
          "properties": {
            "id": 755,
            "name": "Funda Cafe & Patisserie",
            "tips": 175,
            "count": 1,
            "likes": 709,
            "address": "Yaşamkent Mah. 3222.Cd 55/18",
            "category": "Café"
          }
        },
        {
          "id": 756,
          "type": "Feature",
          "geometry": {
            "type": "Point",
            "coordinates": [
              32.6454046209816,
              39.856276563514
            ]
          },
          "properties": {
            "id": 756,
            "name": "Ayba Kırtasiye & Kopyalama",
            "tips": 4,
            "count": 1,
            "likes": 25,
            "address": "Yasamkent Karina AVM",
            "category": "Paper / Office Supplies Store"
          }
        },
        {
          "id": 781,
          "type": "Feature",
          "geometry": {
            "type": "Point",
            "coordinates": [
              32.6449822411788,
              39.8574122653523
            ]
          },
          "properties": {
            "id": 781,
            "name": "Mado",
            "tips": 51,
            "count": 1,
            "likes": 145,
            "address": "3222. Cd. No:27/H Yenimahalle",
            "category": "Dessert Shop"
          }
        },
        {
          "id": 789,
          "type": "Feature",
          "geometry": {
            "type": "Point",
            "coordinates": [
              32.6458523800611,
              39.8692255866961
            ]
          },
          "properties": {
            "id": 789,
            "name": "Çıldırın Cimnastik ve Dans Akademisi",
            "tips": 0,
            "count": 1,
            "likes": 16,
            "category": "Gymnastics Gym"
          }
        },
        {
          "id": 790,
          "type": "Feature",
          "geometry": {
            "type": "Point",
            "coordinates": [
              32.6435552907936,
              39.8707992329433
            ]
          },
          "properties": {
            "id": 790,
            "name": "Bamboo World",
            "tips": 4,
            "count": 1,
            "likes": 8,
            "category": "Furniture / Home Store"
          }
        },
        {
          "id": 792,
          "type": "Feature",
          "geometry": {
            "type": "Point",
            "coordinates": [
              32.6453865173226,
              39.8697004126392
            ]
          },
          "properties": {
            "id": 792,
            "name": "Başkent Aspava",
            "tips": 44,
            "count": 1,
            "likes": 100,
            "address": "3207. Cadde",
            "category": "Turkish Restaurant"
          }
        },
        {
          "id": 802,
          "type": "Feature",
          "geometry": {
            "type": "Point",
            "coordinates": [
              32.6425907464199,
              39.8918444907355
            ]
          },
          "properties": {
            "id": 802,
            "name": "Osmanoğulları Pide Ve Kebap Salonu",
            "tips": 53,
            "count": 1,
            "likes": 62,
            "category": "Kebab Restaurant"
          }
        },
        {
          "id": 805,
          "type": "Feature",
          "geometry": {
            "type": "Point",
            "coordinates": [
              32.6433896516567,
              39.8980237150349
            ]
          },
          "properties": {
            "id": 805,
            "name": "Belkıshan Künefe",
            "tips": 16,
            "count": 1,
            "likes": 20,
            "category": "Dessert Shop"
          }
        },
        {
          "id": 842,
          "type": "Feature",
          "geometry": {
            "type": "Point",
            "coordinates": [
              32.6432679746875,
              39.8621011694692
            ]
          },
          "properties": {
            "id": 842,
            "name": "Bankamatikler 2 Yaşamkent",
            "tips": 0,
            "count": 1,
            "likes": 0,
            "address": "Altınbilekler Yanı",
            "category": "ATM"
          }
        },
        {
          "id": 862,
          "type": "Feature",
          "geometry": {
            "type": "Point",
            "coordinates": [
              32.6514406432063,
              39.8544645481119
            ]
          },
          "properties": {
            "id": 862,
            "name": "Studio Simit",
            "tips": 24,
            "count": 1,
            "likes": 34,
            "address": "158. Cadde No: 67/A-1 Yaşamkent – Yenimahalle ANKARA",
            "category": "Café"
          }
        },
        {
          "id": 866,
          "type": "Feature",
          "geometry": {
            "type": "Point",
            "coordinates": [
              32.6481801355707,
              39.8661461035546
            ]
          },
          "properties": {
            "id": 866,
            "name": "MANNDA BABA",
            "tips": 31,
            "count": 1,
            "likes": 79,
            "address": "3207.Cadde No.95 YaşamKent",
            "category": "Deli / Bodega"
          }
        },
        {
          "id": 868,
          "type": "Feature",
          "geometry": {
            "type": "Point",
            "coordinates": [
              32.649374,
              39.87427
            ]
          },
          "properties": {
            "id": 868,
            "name": "Presso Evo Kule",
            "tips": 0,
            "count": 1,
            "likes": 0,
            "address": "Evo Kule",
            "category": "Coffee Shop"
          }
        },
        {
          "id": 881,
          "type": "Feature",
          "geometry": {
            "type": "Point",
            "coordinates": [
              32.6449235670852,
              39.8599700779515
            ]
          },
          "properties": {
            "id": 881,
            "name": "Orta Park",
            "tips": 2,
            "count": 1,
            "likes": 3,
            "address": "Yaşamkent",
            "category": "Park"
          }
        },
        {
          "id": 882,
          "type": "Feature",
          "geometry": {
            "type": "Point",
            "coordinates": [
              32.6492178171257,
              39.87426646704
            ]
          },
          "properties": {
            "id": 882,
            "name": "sporhocam",
            "tips": 5,
            "count": 1,
            "likes": 8,
            "address": "Eskişehir yolu Kule Evo 2.kat",
            "category": "Gym / Fitness Center"
          }
        },
        {
          "id": 887,
          "type": "Feature",
          "geometry": {
            "type": "Point",
            "coordinates": [
              32.64627,
              39.893824
            ]
          },
          "properties": {
            "id": 887,
            "name": "Tost Vitamin",
            "tips": 3,
            "count": 1,
            "likes": 1,
            "address": "Bağlıca Mahallesi 1226.Sokak No:5",
            "category": "Fast Food Restaurant"
          }
        },
        {
          "id": 891,
          "type": "Feature",
          "geometry": {
            "type": "Point",
            "coordinates": [
              32.6476557463304,
              39.897625079408
            ]
          },
          "properties": {
            "id": 891,
            "name": "Altunbilekler Bağlıca",
            "tips": 2,
            "count": 1,
            "likes": 31,
            "address": "Bağlıca Mah",
            "category": "Big Box Store"
          }
        },
        {
          "id": 929,
          "type": "Feature",
          "geometry": {
            "type": "Point",
            "coordinates": [
              32.646381,
              39.861864
            ]
          },
          "properties": {
            "id": 929,
            "name": "Hayrettin Karaca Parkı",
            "tips": 1,
            "count": 1,
            "likes": 2,
            "category": "Park"
          }
        },
        {
          "id": 932,
          "type": "Feature",
          "geometry": {
            "type": "Point",
            "coordinates": [
              32.6519872889785,
              39.8569073253261
            ]
          },
          "properties": {
            "id": 932,
            "name": "Doğal Çiftlik Ürünleri",
            "tips": 3,
            "count": 1,
            "likes": 3,
            "address": "3158. Cadde 32c/14 Yaşamkent",
            "category": "Shopping Mall"
          }
        },
        {
          "id": 933,
          "type": "Feature",
          "geometry": {
            "type": "Point",
            "coordinates": [
              32.6530605586623,
              39.865653540959
            ]
          },
          "properties": {
            "id": 933,
            "name": "Anka Fırın",
            "tips": 85,
            "count": 1,
            "likes": 150,
            "address": "yasamkent",
            "category": "Café"
          }
        },
        {
          "id": 934,
          "type": "Feature",
          "geometry": {
            "type": "Point",
            "coordinates": [
              32.652676,
              39.864597
            ]
          },
          "properties": {
            "id": 934,
            "name": "SİPSE MANTI EVİ",
            "tips": 14,
            "count": 1,
            "likes": 15,
            "address": "Yaşamkent Mahallesi 3250.Cadde 2/A Yaşamkent Çankaya-ANKARA",
            "category": "Restaurant"
          }
        },
        {
          "id": 974,
          "type": "Feature",
          "geometry": {
            "type": "Point",
            "coordinates": [
              32.6529252211739,
              39.8775943958124
            ]
          },
          "properties": {
            "id": 974,
            "name": "baskent molapark",
            "tips": 0,
            "count": 1,
            "likes": 0,
            "category": "Burger Joint"
          }
        },
        {
          "id": 975,
          "type": "Feature",
          "geometry": {
            "type": "Point",
            "coordinates": [
              32.65447,
              39.877108
            ]
          },
          "properties": {
            "id": 975,
            "name": "Vadi Tasarım Mimarlık",
            "tips": 0,
            "count": 1,
            "likes": 1,
            "address": "Prof. Dr.Ahmet Taner Kışlalı Mah. 2812 Cad. NO:39/4 Çayyolu",
            "category": "Construction & Landscaping"
          }
        },
        {
          "id": 982,
          "type": "Feature",
          "geometry": {
            "type": "Point",
            "coordinates": [
              32.6562948376319,
              39.8837047478297
            ]
          },
          "properties": {
            "id": 982,
            "name": "Gloria Jean's Coffees",
            "tips": 40,
            "count": 1,
            "likes": 226,
            "address": "Arsia Studios & Shopping",
            "category": "Coffee Shop"
          }
        },
        {
          "id": 1008,
          "type": "Feature",
          "geometry": {
            "type": "Point",
            "coordinates": [
              32.6536471434688,
              39.9015237961336
            ]
          },
          "properties": {
            "id": 1008,
            "name": "Bulvar Bağlıca İş Merkezi",
            "tips": 0,
            "count": 1,
            "likes": 2,
            "address": "Bağlıca Mahallesi Bağlıca Bulvarı No:99",
            "category": "Shopping Mall"
          }
        },
        {
          "id": 1009,
          "type": "Feature",
          "geometry": {
            "type": "Point",
            "coordinates": [
              32.653398,
              39.917794
            ]
          },
          "properties": {
            "id": 1009,
            "name": "kırlılar",
            "tips": 0,
            "count": 1,
            "likes": 0,
            "category": "Construction & Landscaping"
          }
        },
        {
          "id": 670,
          "type": "Feature",
          "geometry": {
            "type": "Point",
            "coordinates": [
              32.6328316105859,
              39.8606440638669
            ]
          },
          "properties": {
            "id": 670,
            "name": "mangal tepesi",
            "tips": 0,
            "count": 1,
            "likes": 1,
            "category": "Steakhouse"
          }
        },
        {
          "id": 672,
          "type": "Feature",
          "geometry": {
            "type": "Point",
            "coordinates": [
              32.6357015782565,
              39.8668500513374
            ]
          },
          "properties": {
            "id": 672,
            "name": "Sarlo Cafe",
            "tips": 3,
            "count": 1,
            "likes": 2,
            "address": "Bildirici Yanı",
            "category": "Diner"
          }
        },
        {
          "id": 673,
          "type": "Feature",
          "geometry": {
            "type": "Point",
            "coordinates": [
              32.6341175867642,
              39.8638925694943
            ]
          },
          "properties": {
            "id": 673,
            "name": "Crystal Towers Açık Havuz",
            "tips": 0,
            "count": 1,
            "likes": 2,
            "category": "Pool"
          }
        },
        {
          "id": 674,
          "type": "Feature",
          "geometry": {
            "type": "Point",
            "coordinates": [
              32.633053,
              39.875557
            ]
          },
          "properties": {
            "id": 674,
            "name": "Yaşamg",
            "tips": 0,
            "count": 1,
            "likes": 0,
            "category": "Golf Course"
          }
        },
        {
          "id": 694,
          "type": "Feature",
          "geometry": {
            "type": "Point",
            "coordinates": [
              32.6406686408537,
              39.8506999035686
            ]
          },
          "properties": {
            "id": 694,
            "name": "DORUPARK Sağlıklı Yaşam ve Spor Merkezi",
            "tips": 1,
            "count": 1,
            "likes": 0,
            "address": "Yeni Atabilge Sit.    Yaşamkent/Çayyolu",
            "category": "Gym / Fitness Center"
          }
        },
        {
          "id": 696,
          "type": "Feature",
          "geometry": {
            "type": "Point",
            "coordinates": [
              32.6416785809108,
              39.8559711185276
            ]
          },
          "properties": {
            "id": 696,
            "name": "Korhan Kurucay Parki",
            "tips": 6,
            "count": 1,
            "likes": 5,
            "category": "Plaza"
          }
        },
        {
          "id": 705,
          "type": "Feature",
          "geometry": {
            "type": "Point",
            "coordinates": [
              32.6390736880013,
              39.8649030936624
            ]
          },
          "properties": {
            "id": 705,
            "name": "Anka Konutlari Fitness Salonu",
            "tips": 3,
            "count": 1,
            "likes": 1,
            "category": "Gym"
          }
        },
        {
          "id": 708,
          "type": "Feature",
          "geometry": {
            "type": "Point",
            "coordinates": [
              32.6380383682799,
              39.8643956647873
            ]
          },
          "properties": {
            "id": 708,
            "name": "Badenuş Tobacco",
            "tips": 18,
            "count": 1,
            "likes": 28,
            "address": "AnkaModern/Yaşamkent",
            "category": "Smoke Shop"
          }
        },
        {
          "id": 709,
          "type": "Feature",
          "geometry": {
            "type": "Point",
            "coordinates": [
              32.6371709151584,
              39.8652102335803
            ]
          },
          "properties": {
            "id": 709,
            "name": "Bağhane",
            "tips": 166,
            "count": 1,
            "likes": 410,
            "address": "Yaşamkent Mah. 3247. Sok. No:3",
            "category": "Meyhane"
          }
        },
        {
          "id": 710,
          "type": "Feature",
          "geometry": {
            "type": "Point",
            "coordinates": [
              32.6379882165313,
              39.8640006400467
            ]
          },
          "properties": {
            "id": 710,
            "name": "G.M.O Simitçii",
            "tips": 22,
            "count": 1,
            "likes": 85,
            "category": "Bagel Shop"
          }
        },
        {
          "id": 711,
          "type": "Feature",
          "geometry": {
            "type": "Point",
            "coordinates": [
              32.6392865180969,
              39.8658418499268
            ]
          },
          "properties": {
            "id": 711,
            "name": "Inova Cafe Lounge",
            "tips": 31,
            "count": 1,
            "likes": 38,
            "address": "Pelit Plaza Yaşamkent Mahallesi No:6/C-F",
            "category": "Café"
          }
        },
        {
          "id": 712,
          "type": "Feature",
          "geometry": {
            "type": "Point",
            "coordinates": [
              32.6408475986752,
              39.8668040173882
            ]
          },
          "properties": {
            "id": 712,
            "name": "Gupse Cafe/Restoran",
            "tips": 34,
            "count": 1,
            "likes": 115,
            "address": "3248.sokak no: 2/A",
            "category": "Food Court"
          }
        },
        {
          "id": 713,
          "type": "Feature",
          "geometry": {
            "type": "Point",
            "coordinates": [
              32.6375657925145,
              39.8647808163205
            ]
          },
          "properties": {
            "id": 713,
            "name": "Lifecity Sports Club",
            "tips": 6,
            "count": 1,
            "likes": 35,
            "address": "Yaşamkent 3250 cadde ankamodern avm no:2",
            "category": "Gym"
          }
        },
        {
          "id": 714,
          "type": "Feature",
          "geometry": {
            "type": "Point",
            "coordinates": [
              32.6399739673063,
              39.8662467666945
            ]
          },
          "properties": {
            "id": 714,
            "name": "Migros",
            "tips": 0,
            "count": 1,
            "likes": 31,
            "category": "Supermarket"
          }
        },
        {
          "id": 717,
          "type": "Feature",
          "geometry": {
            "type": "Point",
            "coordinates": [
              32.6352986837776,
              39.8612928077691
            ]
          },
          "properties": {
            "id": 717,
            "name": "Pastannecim",
            "tips": 0,
            "count": 1,
            "likes": 0,
            "address": "Yaşamkent/Çayyolu",
            "category": "Dessert Shop"
          }
        },
        {
          "id": 718,
          "type": "Feature",
          "geometry": {
            "type": "Point",
            "coordinates": [
              32.6332234762735,
              39.8702179193334
            ]
          },
          "properties": {
            "id": 718,
            "name": "camel cafe bistro yaşamkent",
            "tips": 0,
            "count": 1,
            "likes": 0,
            "category": "Bistro"
          }
        },
        {
          "id": 723,
          "type": "Feature",
          "geometry": {
            "type": "Point",
            "coordinates": [
              32.6406140339161,
              39.8925797930829
            ]
          },
          "properties": {
            "id": 723,
            "name": "Red Room",
            "tips": 0,
            "count": 1,
            "likes": 2,
            "category": "Gym"
          }
        },
        {
          "id": 724,
          "type": "Feature",
          "geometry": {
            "type": "Point",
            "coordinates": [
              32.636844,
              39.899971
            ]
          },
          "properties": {
            "id": 724,
            "name": "Aksın Dora Konutları Yürüyüş Parkuru",
            "tips": 0,
            "count": 1,
            "likes": 0,
            "category": "Botanical Garden"
          }
        },
        {
          "id": 728,
          "type": "Feature",
          "geometry": {
            "type": "Point",
            "coordinates": [
              32.638416,
              39.89931
            ]
          },
          "properties": {
            "id": 728,
            "name": "Boon Pilates Studio",
            "tips": 0,
            "count": 1,
            "likes": 3,
            "address": "Bağlıca Mahallesi 1180.Cadde 7/7 Kayra İş Merkezi",
            "category": "Pilates Studio"
          }
        },
        {
          "id": 745,
          "type": "Feature",
          "geometry": {
            "type": "Point",
            "coordinates": [
              32.6389301962209,
              39.8565577333301
            ]
          },
          "properties": {
            "id": 745,
            "name": "Çayyolu Arena Stadium",
            "tips": 1,
            "count": 1,
            "likes": 0,
            "address": "8.Cd. Çayyolu",
            "category": "Athletics & Sports"
          }
        },
        {
          "id": 746,
          "type": "Feature",
          "geometry": {
            "type": "Point",
            "coordinates": [
              32.6446145251944,
              39.857688209695
            ]
          },
          "properties": {
            "id": 746,
            "name": "Turkcell",
            "tips": 0,
            "count": 1,
            "likes": 0,
            "category": "Mobile Phone Shop"
          }
        },
        {
          "id": 748,
          "type": "Feature",
          "geometry": {
            "type": "Point",
            "coordinates": [
              32.6454535075505,
              39.8581633273568
            ]
          },
          "properties": {
            "id": 748,
            "name": "Subway",
            "tips": 2,
            "count": 1,
            "likes": 9,
            "address": "3296. Cd. No: 8",
            "category": "Sandwich Place"
          }
        },
        {
          "id": 749,
          "type": "Feature",
          "geometry": {
            "type": "Point",
            "coordinates": [
              32.6451455531666,
              39.8569440126347
            ]
          },
          "properties": {
            "id": 749,
            "name": "Migros",
            "tips": 7,
            "count": 1,
            "likes": 99,
            "address": "3222. Cadde 11. Blok No: 55/3-4-5",
            "category": "Supermarket"
          }
        },
        {
          "id": 750,
          "type": "Feature",
          "geometry": {
            "type": "Point",
            "coordinates": [
              32.646526,
              39.854847
            ]
          },
          "properties": {
            "id": 750,
            "name": "Noww Croissants & Coffee Yaşamkent",
            "tips": 32,
            "count": 1,
            "likes": 47,
            "address": "Yaşamkent Mah.",
            "category": "Café"
          }
        },
        {
          "id": 751,
          "type": "Feature",
          "geometry": {
            "type": "Point",
            "coordinates": [
              32.6425716343432,
              39.8583670435
            ]
          },
          "properties": {
            "id": 751,
            "name": "Ataseven Park Evleri",
            "tips": 1,
            "count": 1,
            "likes": 12,
            "address": "Yasamkent",
            "category": "Residential Building (Apartment / Condo)"
          }
        },
        {
          "id": 753,
          "type": "Feature",
          "geometry": {
            "type": "Point",
            "coordinates": [
              32.6453043495663,
              39.8569436174161
            ]
          },
          "properties": {
            "id": 753,
            "name": "Sarbacı",
            "tips": 6,
            "count": 1,
            "likes": 10,
            "address": "Karina Plaza 1. Kat",
            "category": "Comfort Food Restaurant"
          }
        },
        {
          "id": 757,
          "type": "Feature",
          "geometry": {
            "type": "Point",
            "coordinates": [
              32.6464798614848,
              39.8546912641227
            ]
          },
          "properties": {
            "id": 757,
            "name": "Starbucks",
            "tips": 18,
            "count": 1,
            "likes": 178,
            "address": "Florium Konutları",
            "category": "Coffee Shop"
          }
        },
        {
          "id": 758,
          "type": "Feature",
          "geometry": {
            "type": "Point",
            "coordinates": [
              32.6449841249983,
              39.8573541619097
            ]
          },
          "properties": {
            "id": 758,
            "name": "Mado",
            "tips": 48,
            "count": 1,
            "likes": 307,
            "address": "Yaşamkent",
            "category": "Bakery"
          }
        },
        {
          "id": 759,
          "type": "Feature",
          "geometry": {
            "type": "Point",
            "coordinates": [
              32.645437,
              39.858061
            ]
          },
          "properties": {
            "id": 759,
            "name": "rePUPlicofburger",
            "tips": 1,
            "count": 1,
            "likes": 7,
            "address": "Yasamkent Mahallesi 3296.cadde 2P/77",
            "category": "Restaurant"
          }
        },
        {
          "id": 770,
          "type": "Feature",
          "geometry": {
            "type": "Point",
            "coordinates": [
              32.6422398875813,
              39.863513667193
            ]
          },
          "properties": {
            "id": 770,
            "name": "Besa Ataşehir Evleri Açık Yüzme Havuzu",
            "tips": 6,
            "count": 1,
            "likes": 7,
            "address": "Yasamkent",
            "category": "Pool"
          }
        },
        {
          "id": 771,
          "type": "Feature",
          "geometry": {
            "type": "Point",
            "coordinates": [
              32.637481,
              39.864177
            ]
          },
          "properties": {
            "id": 771,
            "name": "Torku - Doğrudan Anka Modern",
            "tips": 0,
            "count": 1,
            "likes": 2,
            "category": "Grocery Store"
          }
        },
        {
          "id": 773,
          "type": "Feature",
          "geometry": {
            "type": "Point",
            "coordinates": [
              32.6422636173609,
              39.8634881585971
            ]
          },
          "properties": {
            "id": 773,
            "name": "Besa Atasehir Evleri Fitness Center",
            "tips": 4,
            "count": 1,
            "likes": 18,
            "category": "Gym / Fitness Center"
          }
        },
        {
          "id": 774,
          "type": "Feature",
          "geometry": {
            "type": "Point",
            "coordinates": [
              32.6422598897924,
              39.8588290295519
            ]
          },
          "properties": {
            "id": 774,
            "name": "Yas@mkent",
            "tips": 0,
            "count": 1,
            "likes": 1,
            "category": "Plaza"
          }
        },
        {
          "id": 775,
          "type": "Feature",
          "geometry": {
            "type": "Point",
            "coordinates": [
              32.6461210956391,
              39.8599482909768
            ]
          },
          "properties": {
            "id": 775,
            "name": "Fazıl Küçük Kıbrıs Parkı",
            "tips": 2,
            "count": 1,
            "likes": 9,
            "category": "Playground"
          }
        },
        {
          "id": 776,
          "type": "Feature",
          "geometry": {
            "type": "Point",
            "coordinates": [
              32.64452,
              39.857704
            ]
          },
          "properties": {
            "id": 776,
            "name": "Ha'dbay",
            "tips": 3,
            "count": 1,
            "likes": 0,
            "category": "Steakhouse"
          }
        },
        {
          "id": 777,
          "type": "Feature",
          "geometry": {
            "type": "Point",
            "coordinates": [
              32.6430751109405,
              39.8612716260794
            ]
          },
          "properties": {
            "id": 777,
            "name": "Altunbilekler",
            "tips": 8,
            "count": 1,
            "likes": 52,
            "address": "Besa Nova Yaşamkent Mah.",
            "category": "Supermarket"
          }
        },
        {
          "id": 778,
          "type": "Feature",
          "geometry": {
            "type": "Point",
            "coordinates": [
              32.6447454232389,
              39.8575430958909
            ]
          },
          "properties": {
            "id": 778,
            "name": "Burger King",
            "tips": 14,
            "count": 1,
            "likes": 62,
            "address": "Yasamkent",
            "category": "Fast Food Restaurant"
          }
        },
        {
          "id": 780,
          "type": "Feature",
          "geometry": {
            "type": "Point",
            "coordinates": [
              32.642049,
              39.866418
            ]
          },
          "properties": {
            "id": 780,
            "name": "Gubate & Mantı Evi",
            "tips": 6,
            "count": 1,
            "likes": 8,
            "category": "Buffet"
          }
        },
        {
          "id": 782,
          "type": "Feature",
          "geometry": {
            "type": "Point",
            "coordinates": [
              32.643328071789,
              39.8616210451192
            ]
          },
          "properties": {
            "id": 782,
            "name": "Tadım Pizza",
            "tips": 9,
            "count": 1,
            "likes": 4,
            "address": "3222 Cd. 3245 Sk. Besa Nova Plaza No: 7/D-08",
            "category": "Pizza Place"
          }
        },
        {
          "id": 783,
          "type": "Feature",
          "geometry": {
            "type": "Point",
            "coordinates": [
              32.6381811973724,
              39.8644242743567
            ]
          },
          "properties": {
            "id": 783,
            "name": "Defne&Nil Eczanesi",
            "tips": 1,
            "count": 1,
            "likes": 3,
            "address": "Yaşamkent Mah. 3250. Cad. Ankamodern C Blok No:20/13",
            "category": "Pharmacy"
          }
        },
        {
          "id": 784,
          "type": "Feature",
          "geometry": {
            "type": "Point",
            "coordinates": [
              32.6453577969364,
              39.8573878592126
            ]
          },
          "properties": {
            "id": 784,
            "name": "SportsA Life Club",
            "tips": 98,
            "count": 1,
            "likes": 261,
            "address": "Yaşamkent Mah. 3222. Cad. Besa Karina Plaza No:57/7",
            "category": "Gym / Fitness Center"
          }
        },
        {
          "id": 785,
          "type": "Feature",
          "geometry": {
            "type": "Point",
            "coordinates": [
              32.64569,
              39.85997
            ]
          },
          "properties": {
            "id": 785,
            "name": "Yaşamkent Dr. Fazıl Küçük Parkı",
            "tips": 0,
            "count": 1,
            "likes": 6,
            "category": "Park"
          }
        },
        {
          "id": 786,
          "type": "Feature",
          "geometry": {
            "type": "Point",
            "coordinates": [
              32.6454312767467,
              39.860093632226
            ]
          },
          "properties": {
            "id": 786,
            "name": "Yaşamkent Yürüyüş Parkuru",
            "tips": 19,
            "count": 1,
            "likes": 135,
            "category": "Park"
          }
        },
        {
          "id": 787,
          "type": "Feature",
          "geometry": {
            "type": "Point",
            "coordinates": [
              32.643517875229,
              39.8616466098889
            ]
          },
          "properties": {
            "id": 787,
            "name": "erciyes baklava",
            "tips": 3,
            "count": 1,
            "likes": 6,
            "address": "3222. Cad Yasamkent",
            "category": "Bakery"
          }
        },
        {
          "id": 788,
          "type": "Feature",
          "geometry": {
            "type": "Point",
            "coordinates": [
              32.6458506871848,
              39.8654614948047
            ]
          },
          "properties": {
            "id": 788,
            "name": "Ataşehir basket sahası",
            "tips": 0,
            "count": 1,
            "likes": 0,
            "category": "Basketball Court"
          }
        },
        {
          "id": 791,
          "type": "Feature",
          "geometry": {
            "type": "Point",
            "coordinates": [
              32.645439,
              39.867324
            ]
          },
          "properties": {
            "id": 791,
            "name": "korsan park",
            "tips": 0,
            "count": 1,
            "likes": 0,
            "category": "Park"
          }
        },
        {
          "id": 793,
          "type": "Feature",
          "geometry": {
            "type": "Point",
            "coordinates": [
              32.6455244414207,
              39.869571785325
            ]
          },
          "properties": {
            "id": 793,
            "name": "Simitçi Yaşamkent",
            "tips": 1,
            "count": 1,
            "likes": 5,
            "category": "Bakery"
          }
        },
        {
          "id": 794,
          "type": "Feature",
          "geometry": {
            "type": "Point",
            "coordinates": [
              32.6378621541437,
              39.8639845853069
            ]
          },
          "properties": {
            "id": 794,
            "name": "Simitçii Yaşamkent",
            "tips": 2,
            "count": 1,
            "likes": 3,
            "address": "Yaşamkent Mah.",
            "category": "Breakfast Spot"
          }
        },
        {
          "id": 795,
          "type": "Feature",
          "geometry": {
            "type": "Point",
            "coordinates": [
              32.645584381523,
              39.8693269021758
            ]
          },
          "properties": {
            "id": 795,
            "name": "Kahve Şöleni",
            "tips": 16,
            "count": 1,
            "likes": 15,
            "address": "Yaşamkent Mahallesi 3207. Cad. 19/1",
            "category": "Coffee Shop"
          }
        },
        {
          "id": 796,
          "type": "Feature",
          "geometry": {
            "type": "Point",
            "coordinates": [
              32.642947890416,
              39.86615624357
            ]
          },
          "properties": {
            "id": 796,
            "name": "yaşam kafe",
            "tips": 0,
            "count": 1,
            "likes": 0,
            "address": "çayyolu yaşamkent",
            "category": "Bistro"
          }
        },